header:
  stamp:
    sec: 1723550647
    nanosec: 978939392
  frame_id: map
pose:
  position:
    x: -0.03358123078942299
    y: 0.008974770084023476
    z: 0.04353862628340721
  orientation:
    x: -0.0027675156608488525
    y: -0.0019407170625974548
    z: -0.00048358091762385695
    w: 0.9999941736289999
---
header:
  stamp:
    sec: 1723550648
    nanosec: 79824640
  frame_id: map
pose:
  position:
    x: -0.03378899767994881
    y: 0.009085748344659805
    z: 0.044063132256269455
  orientation:
    x: -0.0026548971957582185
    y: -0.001745255866655951
    z: -0.0005203199022437702
    w: 0.9999948143824592
---
header:
  stamp:
    sec: 1723550648
    nanosec: 180655616
  frame_id: map
pose:
  position:
    x: -0.03525526076555252
    y: 0.004654885735362768
    z: 0.041138991713523865
  orientation:
    x: -0.0016852112714618927
    y: -0.002719022164851486
    z: -8.299211465132375e-05
    w: 0.9999948814380301
---
header:
  stamp:
    sec: 1723550648
    nanosec: 281552128
  frame_id: map
pose:
  position:
    x: -0.031190678477287292
    y: 0.009924003854393959
    z: 0.04593539237976074
  orientation:
    x: -0.0031523169789105785
    y: -0.0015098001203263664
    z: -0.0004700082234803479
    w: 0.9999937712952226
---
header:
  stamp:
    sec: 1723550648
    nanosec: 382453760
  frame_id: map
pose:
  position:
    x: -0.03965524211525917
    y: 0.009654118679463863
    z: 0.043732691556215286
  orientation:
    x: -0.0028331174573921624
    y: -0.0031854051437226784
    z: -0.0006486018407611278
    w: 0.9999906867308853
---
header:
  stamp:
    sec: 1723550648
    nanosec: 483409408
  frame_id: map
pose:
  position:
    x: -0.035512540489435196
    y: 0.008569550700485706
    z: 0.042406145483255386
  orientation:
    x: -0.0026856717330131937
    y: -0.0020153016600910033
    z: -0.0004390741425725537
    w: 0.9999942555858606
---
header:
  stamp:
    sec: 1723550648
    nanosec: 584350976
  frame_id: map
pose:
  position:
    x: -0.03540036082267761
    y: 0.0088828569278121
    z: 0.04241947829723358
  orientation:
    x: -0.0026876175675902537
    y: -0.0018440466043851695
    z: -0.0005899728163414565
    w: 0.9999944940057809
---
header:
  stamp:
    sec: 1723550648
    nanosec: 685141760
  frame_id: map
pose:
  position:
    x: -0.03583985194563866
    y: 0.008324622176587582
    z: 0.04258201643824577
  orientation:
    x: -0.002660432362397912
    y: -0.0020809280701693245
    z: -0.0004662490601256521
    w: 0.9999941810796239
---
header:
  stamp:
    sec: 1723550648
    nanosec: 786008064
  frame_id: map
pose:
  position:
    x: -0.03588772565126419
    y: 0.008858523331582546
    z: 0.042752593755722046
  orientation:
    x: -0.002677445556406827
    y: -0.0018785009334324472
    z: -0.0007267512346392133
    w: 0.9999943822464503
---
header:
  stamp:
    sec: 1723550648
    nanosec: 886990592
  frame_id: map
pose:
  position:
    x: -0.03678515926003456
    y: 0.008283876813948154
    z: 0.04300990700721741
  orientation:
    x: -0.002415755717980409
    y: -0.002015669339593484
    z: -0.000690074781744133
    w: 0.9999948143824592
---
header:
  stamp:
    sec: 1723550648
    nanosec: 987694848
  frame_id: map
pose:
  position:
    x: -0.03719153255224228
    y: 0.008315877057611942
    z: 0.04292790964245796
  orientation:
    x: -0.002391433045568975
    y: -0.002036998458032736
    z: -0.0007431206336490741
    w: 0.9999947696787428
---
header:
  stamp:
    sec: 1723550649
    nanosec: 88682496
  frame_id: map
pose:
  position:
    x: -0.03763887658715248
    y: 0.007742611691355705
    z: 0.0441327765583992
  orientation:
    x: -0.0025556933660863795
    y: -0.0022723083783099075
    z: -0.0004582286156219244
    w: 0.9999940395177588
---
header:
  stamp:
    sec: 1723550649
    nanosec: 189538816
  frame_id: map
pose:
  position:
    x: -0.02804400399327278
    y: 0.007056467700749636
    z: 0.041712436825037
  orientation:
    x: -0.0029181988419122776
    y: -0.002068052210731772
    z: -0.00021994159299101664
    w: 0.9999935701282733
---
header:
  stamp:
    sec: 1723550649
    nanosec: 290448640
  frame_id: map
pose:
  position:
    x: -0.03791531175374985
    y: 0.009689695201814175
    z: 0.042025819420814514
  orientation:
    x: -0.0026845011292439664
    y: -0.002286086003303508
    z: -0.0009496351432563362
    w: 0.999993316806872
---
header:
  stamp:
    sec: 1723550649
    nanosec: 391317504
  frame_id: map
pose:
  position:
    x: -0.03519337624311447
    y: 0.010881642811000347
    z: 0.04268892481923103
  orientation:
    x: -0.0030525222056722043
    y: -0.0020563593197231787
    z: -0.0009874060037510404
    w: 0.999992750558802
---
header:
  stamp:
    sec: 1723550649
    nanosec: 492192512
  frame_id: map
pose:
  position:
    x: -0.03703100234270096
    y: 0.011535032652318478
    z: 0.04283609613776207
  orientation:
    x: -0.0030155324580298944
    y: -0.0023984838875231165
    z: -0.000957718639621636
    w: 0.9999921023533809
---
header:
  stamp:
    sec: 1723550649
    nanosec: 593334528
  frame_id: map
pose:
  position:
    x: -0.03862472251057625
    y: 0.010713146068155766
    z: 0.04288794845342636
  orientation:
    x: -0.0027475642015998792
    y: -0.002574349005160083
    z: -0.0009329615995025602
    w: 0.9999924674346468
---
header:
  stamp:
    sec: 1723550649
    nanosec: 693972992
  frame_id: map
pose:
  position:
    x: -0.038092803210020065
    y: 0.011406190693378448
    z: 0.04328618571162224
  orientation:
    x: -0.002926622805684755
    y: -0.002587367664692618
    z: -0.000924714343353962
    w: 0.9999919458899403
---
header:
  stamp:
    sec: 1723550649
    nanosec: 794797824
  frame_id: map
pose:
  position:
    x: -0.03678584471344948
    y: 0.01207878440618515
    z: 0.04358676075935364
  orientation:
    x: -0.0028991974032579414
    y: -0.002573702179067161
    z: -0.0010718090577408602
    w: 0.9999918862848137
---
header:
  stamp:
    sec: 1723550649
    nanosec: 895758592
  frame_id: map
pose:
  position:
    x: -0.03366495296359062
    y: 0.011712449602782726
    z: 0.04360063746571541
  orientation:
    x: -0.002928455045452152
    y: -0.002330603852262702
    z: -0.0010101014973137592
    w: 0.9999924748852834
---
header:
  stamp:
    sec: 1723550649
    nanosec: 996487168
  frame_id: map
pose:
  position:
    x: -0.03516430780291557
    y: 0.011728067882359028
    z: 0.043576665222644806
  orientation:
    x: -0.002948497787563405
    y: -0.002439214139691479
    z: -0.0010066344572813404
    w: 0.9999921768597725
---
header:
  stamp:
    sec: 1723550650
    nanosec: 97476864
  frame_id: map
pose:
  position:
    x: -0.03311282768845558
    y: 0.009134982712566853
    z: 0.04222540184855461
  orientation:
    x: -0.0028767558631595776
    y: -0.0021353763293112805
    z: -0.0007516246165292181
    w: 0.9999932944549806
---
header:
  stamp:
    sec: 1723550650
    nanosec: 198389504
  frame_id: map
pose:
  position:
    x: -0.03584437444806099
    y: 0.009856686927378178
    z: 0.04343067482113838
  orientation:
    x: -0.002860772171577316
    y: -0.002400438991969746
    z: -0.0010682325685222212
    w: 0.9999924376320994
---
header:
  stamp:
    sec: 1723550650
    nanosec: 299249152
  frame_id: map
pose:
  position:
    x: -0.03624535724520683
    y: 0.010244314558804035
    z: 0.04346480965614319
  orientation:
    x: -0.003061622895474997
    y: -0.0025492264377921896
    z: -0.0009633444912460268
    w: 0.999991580808484
---
header:
  stamp:
    sec: 1723550650
    nanosec: 400180992
  frame_id: map
pose:
  position:
    x: -0.02766287513077259
    y: 0.009375214576721191
    z: 0.039461277425289154
  orientation:
    x: -0.003253427174462121
    y: -0.002244189178711335
    z: -0.0006193366799150076
    w: 0.9999919980444233
---
header:
  stamp:
    sec: 1723550650
    nanosec: 500994560
  frame_id: map
pose:
  position:
    x: -0.026207324117422104
    y: 0.00901809148490429
    z: 0.040333375334739685
  orientation:
    x: -0.0031309545214409243
    y: -0.0018492722781500751
    z: -0.0006517245442175837
    w: 0.9999931752448846
---
header:
  stamp:
    sec: 1723550650
    nanosec: 601835520
  frame_id: map
pose:
  position:
    x: -0.0324864536523819
    y: 0.006347683258354664
    z: 0.04554117098450661
  orientation:
    x: -0.0026658188234903743
    y: -0.0035575267826043816
    z: 0.0005805311850442832
    w: 0.9999899416656091
---
header:
  stamp:
    sec: 1723550650
    nanosec: 702755328
  frame_id: map
pose:
  position:
    x: -0.03308594226837158
    y: 0.009135999716818333
    z: 0.04398332163691521
  orientation:
    x: -0.003126616950494163
    y: -0.0020394503370648404
    z: -0.00043629057781782585
    w: 0.9999929219233833
---
header:
  stamp:
    sec: 1723550650
    nanosec: 803556352
  frame_id: map
pose:
  position:
    x: -0.033248767256736755
    y: 0.009183632209897041
    z: 0.04393374174833298
  orientation:
    x: -0.0030567978982225866
    y: -0.002009524926331454
    z: -0.0004841206508225235
    w: 0.999993182695516
---
header:
  stamp:
    sec: 1723550650
    nanosec: 904638464
  frame_id: map
pose:
  position:
    x: -0.03551461175084114
    y: 0.008975873701274395
    z: 0.04358627647161484
  orientation:
    x: -0.0029659199283514808
    y: -0.0022446983047027256
    z: -0.0004498687694276631
    w: 0.9999929666271823
---
header:
  stamp:
    sec: 1723550651
    nanosec: 5427456
  frame_id: map
pose:
  position:
    x: -0.03554600477218628
    y: 0.009333271533250809
    z: 0.043615806847810745
  orientation:
    x: -0.0029082226432090353
    y: -0.002252248255352662
    z: -0.0005545224168778259
    w: 0.9999930634854066
---
header:
  stamp:
    sec: 1723550651
    nanosec: 106226944
  frame_id: map
pose:
  position:
    x: -0.036208897829055786
    y: 0.009824858978390694
    z: 0.04407428205013275
  orientation:
    x: -0.003042337041802587
    y: -0.0021187920682829643
    z: -0.0005882440443119186
    w: 0.9999929517259162
---
header:
  stamp:
    sec: 1723550651
    nanosec: 207182080
  frame_id: map
pose:
  position:
    x: -0.025001151487231255
    y: 0.0075028883293271065
    z: 0.04028598591685295
  orientation:
    x: -0.0026909393198746912
    y: -0.0020094740186036015
    z: -0.00031045270732229895
    w: 0.9999943002896
---
header:
  stamp:
    sec: 1723550651
    nanosec: 307963904
  frame_id: map
pose:
  position:
    x: -0.03652827814221382
    y: 0.008856554515659809
    z: 0.04231249913573265
  orientation:
    x: -0.002021480197449621
    y: -0.002721283037289265
    z: -0.0010091554434465255
    w: 0.9999937414927141
---
header:
  stamp:
    sec: 1723550651
    nanosec: 509815040
  frame_id: map
pose:
  position:
    x: -0.027766525745391846
    y: 0.008998295292258263
    z: 0.04713863879442215
  orientation:
    x: -0.0029408002736718377
    y: -0.0025215993838976916
    z: -0.0008107889256219751
    w: 0.9999921619584946
---
header:
  stamp:
    sec: 1723550651
    nanosec: 610633984
  frame_id: map
pose:
  position:
    x: -0.01826459914445877
    y: 0.004552074708044529
    z: 0.040740180760622025
  orientation:
    x: -0.002555549092393519
    y: -0.0024213774977986185
    z: -0.00034078460506257243
    w: 0.9999937340420869
---
header:
  stamp:
    sec: 1723550651
    nanosec: 711593984
  frame_id: map
pose:
  position:
    x: -0.01940452679991722
    y: 0.004519873298704624
    z: 0.04021885618567467
  orientation:
    x: -0.002638338529109156
    y: -0.0024151339907417667
    z: -0.00026788344133696546
    w: 0.9999935403257588
---
header:
  stamp:
    sec: 1723550651
    nanosec: 812510208
  frame_id: map
pose:
  position:
    x: -0.02083567902445793
    y: 0.004154553636908531
    z: 0.04037603363394737
  orientation:
    x: -0.0022481278355100105
    y: -0.0024672458753187544
    z: -0.0003761152033871354
    w: 0.9999943524439601
---
header:
  stamp:
    sec: 1723550651
    nanosec: 913338880
  frame_id: map
pose:
  position:
    x: -0.020824231207370758
    y: 0.004224693402647972
    z: 0.04036886245012283
  orientation:
    x: -0.002219167615773397
    y: -0.0024489846093550278
    z: -0.00042474505313631444
    w: 0.9999944567526721
---
header:
  stamp:
    sec: 1723550652
    nanosec: 14196224
  frame_id: map
pose:
  position:
    x: -0.031926412135362625
    y: 0.004709570202976465
    z: 0.04378422722220421
  orientation:
    x: -0.002251503571892037
    y: -0.0028963055289508146
    z: -0.00038694112562299147
    w: 0.99999320504741
---
header:
  stamp:
    sec: 1723550652
    nanosec: 115238656
  frame_id: map
pose:
  position:
    x: -0.03161284700036049
    y: 0.0045343260280787945
    z: 0.04354918748140335
  orientation:
    x: -0.0021426085180804686
    y: -0.002859720362315334
    z: -0.00041260703248204494
    w: 0.99999353287513
---
header:
  stamp:
    sec: 1723550652
    nanosec: 215944448
  frame_id: map
pose:
  position:
    x: -0.02987859770655632
    y: 0.004500963259488344
    z: 0.04289613664150238
  orientation:
    x: -0.0021492838897693694
    y: -0.002751067276238019
    z: -0.00038635764197147895
    w: 0.9999938234496103
---
header:
  stamp:
    sec: 1723550652
    nanosec: 316856832
  frame_id: map
pose:
  position:
    x: -0.029501842334866524
    y: 0.004141514655202627
    z: 0.04126417636871338
  orientation:
    x: -0.0015883320728454376
    y: -0.0026371047044184176
    z: -0.0007502362900750281
    w: 0.9999949708454509
---
header:
  stamp:
    sec: 1723550652
    nanosec: 417804288
  frame_id: map
pose:
  position:
    x: -0.024785323068499565
    y: 0.007189352996647358
    z: 0.04385902360081673
  orientation:
    x: -0.0016512021923494834
    y: -0.0026948184974234838
    z: -0.0013802280290070284
    w: 0.9999940544190087
---
header:
  stamp:
    sec: 1723550652
    nanosec: 518745344
  frame_id: map
pose:
  position:
    x: -0.01706892065703869
    y: 0.003578690579161048
    z: 0.04321690648794174
  orientation:
    x: -0.002290188347567777
    y: -0.0021441392280222393
    z: -0.0005556846782740275
    w: 0.9999949112405045
---
header:
  stamp:
    sec: 1723550652
    nanosec: 821216256
  frame_id: map
pose:
  position:
    x: -0.029676707461476326
    y: 0.0030719218775629997
    z: 0.04325525835156441
  orientation:
    x: -0.0017515193413357008
    y: -0.0025364008473951483
    z: -0.00021974456967438952
    w: 0.9999952092652006
---
header:
  stamp:
    sec: 1723550652
    nanosec: 922197248
  frame_id: map
pose:
  position:
    x: -0.018621213734149933
    y: 0.004214986227452755
    z: 0.045413244515657425
  orientation:
    x: -0.0026496054918579335
    y: -0.002390823260356899
    z: -0.0004945364168586683
    w: 0.9999935030726145
---
header:
  stamp:
    sec: 1723550653
    nanosec: 23047424
  frame_id: map
pose:
  position:
    x: -0.018620654940605164
    y: 0.004215662367641926
    z: 0.0454133078455925
  orientation:
    x: -0.002649247861665784
    y: -0.002390823143940821
    z: -0.0004945372754272449
    w: 0.9999935030726145
---
header:
  stamp:
    sec: 1723550653
    nanosec: 123891712
  frame_id: map
pose:
  position:
    x: -0.01862865872681141
    y: 0.004215864930301905
    z: 0.045415379106998444
  orientation:
    x: -0.002650321916403015
    y: -0.0023908223290282733
    z: -0.0004940578740173254
    w: 0.9999935030726145
---
header:
  stamp:
    sec: 1723550653
    nanosec: 325723136
  frame_id: map
pose:
  position:
    x: -0.02839895337820053
    y: 0.004159369505941868
    z: 0.04528586193919182
  orientation:
    x: -0.0023215410866354487
    y: -0.002782156026697896
    z: -0.00029521335632479146
    w: 0.9999933764119133
---
header:
  stamp:
    sec: 1723550653
    nanosec: 426556416
  frame_id: map
pose:
  position:
    x: -0.022473283112049103
    y: 0.0037803067825734615
    z: 0.04600514471530914
  orientation:
    x: -0.002308634756581572
    y: -0.0026591739696688673
    z: -0.0003667008753758575
    w: 0.9999937191408322
---
header:
  stamp:
    sec: 1723550653
    nanosec: 527429376
  frame_id: map
pose:
  position:
    x: -0.021927328780293465
    y: 0.0039319563657045364
    z: 0.045548971742391586
  orientation:
    x: -0.002368627178264958
    y: -0.0031110695896267833
    z: 6.101444655805182e-06
    w: 0.9999923556750897
---
header:
  stamp:
    sec: 1723550653
    nanosec: 830106624
  frame_id: map
pose:
  position:
    x: -0.0220328401774168
    y: 0.004030387382954359
    z: 0.045203737914562225
  orientation:
    x: -0.0023350097478197465
    y: -0.003214467071604139
    z: 0.00019172557144149467
    w: 0.9999920725508227
---
header:
  stamp:
    sec: 1723550653
    nanosec: 931010048
  frame_id: map
pose:
  position:
    x: -0.030416419729590416
    y: 0.004833003971725702
    z: 0.04305121302604675
  orientation:
    x: -0.002536996421694284
    y: -0.0021162260523337165
    z: -0.0008226995372648916
    w: 0.9999942034314955
---
header:
  stamp:
    sec: 1723550654
    nanosec: 31877120
  frame_id: map
pose:
  position:
    x: -0.029737940058112144
    y: 0.004475440364331007
    z: 0.0424540713429451
  orientation:
    x: -0.0024842716226700407
    y: -0.0020260223416482272
    z: -0.0007595290532421347
    w: 0.9999945759626153
---
header:
  stamp:
    sec: 1723550654
    nanosec: 132768000
  frame_id: map
pose:
  position:
    x: -0.023668577894568443
    y: 0.003317945869639516
    z: 0.042781680822372437
  orientation:
    x: -0.002818376717514639
    y: -0.0016809884364967784
    z: -0.0004428493414010318
    w: 0.9999944791045375
---
header:
  stamp:
    sec: 1723550654
    nanosec: 233565696
  frame_id: map
pose:
  position:
    x: -0.03842395544052124
    y: 0.006536270026117563
    z: 0.04391095042228699
  orientation:
    x: -0.00212057597688737
    y: -0.003137863896724378
    z: -0.0008237035586127242
    w: 0.9999924823359201
---
header:
  stamp:
    sec: 1723550654
    nanosec: 334502144
  frame_id: map
pose:
  position:
    x: -0.018137888982892036
    y: 0.00372109841555357
    z: 0.041345901787281036
  orientation:
    x: -0.0023972816190045063
    y: -0.0026893739731753442
    z: -0.0008664716237083335
    w: 0.9999931379917266
---
header:
  stamp:
    sec: 1723550654
    nanosec: 435419136
  frame_id: map
pose:
  position:
    x: -0.026400534436106682
    y: 0.0003446685732342303
    z: 0.03885931521654129
  orientation:
    x: -0.0029233998793764715
    y: -0.00218064256276477
    z: -0.0017057786912696871
    w: 0.9999918862848137
---
header:
  stamp:
    sec: 1723550654
    nanosec: 536286464
  frame_id: map
pose:
  position:
    x: -0.030973244458436966
    y: 0.006924907676875591
    z: 0.05153271183371544
  orientation:
    x: -0.0053343250274620795
    y: -0.003856228294434867
    z: -0.0013262008829348624
    w: 0.9999774542889591
---
header:
  stamp:
    sec: 1723550654
    nanosec: 637142528
  frame_id: map
pose:
  position:
    x: -0.025584792718291283
    y: 0.007683332543820143
    z: 0.05086681991815567
  orientation:
    x: -0.009343419834709106
    y: -0.005532617329074999
    z: -0.003969886295574819
    w: 0.9999331511565005
---
header:
  stamp:
    sec: 1723550654
    nanosec: 738061824
  frame_id: map
pose:
  position:
    x: -0.02895928919315338
    y: -0.007924558594822884
    z: 0.03453753516077995
  orientation:
    x: -0.006571224261076742
    y: -0.009076150855665084
    z: -0.010123518773653976
    w: 0.999885969813103
---
header:
  stamp:
    sec: 1723550654
    nanosec: 838912256
  frame_id: map
pose:
  position:
    x: -0.025784505531191826
    y: -0.01802484132349491
    z: -0.018346358090639114
  orientation:
    x: -0.0019965882931215553
    y: -0.014632760511036994
    z: -0.020587957219604963
    w: 0.9996789700071758
---
header:
  stamp:
    sec: 1723550654
    nanosec: 939835136
  frame_id: map
pose:
  position:
    x: -0.05683464556932449
    y: -0.03210456669330597
    z: -0.016942055895924568
  orientation:
    x: 0.00439254404334122
    y: -0.015767978181026442
    z: -0.03194222355608074
    w: 0.9993556599180029
---
header:
  stamp:
    sec: 1723550655
    nanosec: 40626688
  frame_id: map
pose:
  position:
    x: -0.09282530844211578
    y: -0.01835263893008232
    z: -0.020290357992053032
  orientation:
    x: -8.641504891399498e-05
    y: -0.02063836965287247
    z: -0.04292293565998402
    w: 0.9988651914734373
---
header:
  stamp:
    sec: 1723550655
    nanosec: 141535744
  frame_id: map
pose:
  position:
    x: -0.08516043424606323
    y: -0.028554104268550873
    z: -0.056676216423511505
  orientation:
    x: -0.0015474997222113566
    y: -0.018974184085042763
    z: -0.05408258802964444
    w: 0.9983549594341198
---
header:
  stamp:
    sec: 1723550655
    nanosec: 343355904
  frame_id: map
pose:
  position:
    x: -0.09997591376304626
    y: -0.024415520951151848
    z: -0.09306339919567108
  orientation:
    x: 0.0013720858353913298
    y: -0.016559380347842954
    z: -0.0788379557994545
    w: 0.99674895186234
---
header:
  stamp:
    sec: 1723550655
    nanosec: 444219904
  frame_id: map
pose:
  position:
    x: -0.07469671219587326
    y: -0.032452140003442764
    z: -0.08978527039289474
  orientation:
    x: 0.0006401276172598869
    y: -0.013509932065003043
    z: -0.09207230693933748
    w: 0.9956604632295695
---
header:
  stamp:
    sec: 1723550655
    nanosec: 545073664
  frame_id: map
pose:
  position:
    x: -0.08790065348148346
    y: -0.03765260428190231
    z: -0.11623343825340271
  orientation:
    x: -0.0005579441880250363
    y: -0.01525602912636842
    z: -0.10382222742431371
    w: 0.9944786741109585
---
header:
  stamp:
    sec: 1723550655
    nanosec: 645907456
  frame_id: map
pose:
  position:
    x: -0.08353142440319061
    y: -0.050164446234703064
    z: -0.12664377689361572
  orientation:
    x: -0.00021457718680511164
    y: -0.015424425965516369
    z: -0.11337630071487488
    w: 0.9934323603931204
---
header:
  stamp:
    sec: 1723550655
    nanosec: 948639744
  frame_id: map
pose:
  position:
    x: -0.10315932333469391
    y: -0.07977570593357086
    z: -0.15328329801559448
  orientation:
    x: 0.0017550062184427393
    y: -0.01749559539299909
    z: -0.12518930758728367
    w: 0.9919770310414412
---
header:
  stamp:
    sec: 1723550656
    nanosec: 49470464
  frame_id: map
pose:
  position:
    x: -0.08911877125501633
    y: -0.08962986618280411
    z: -0.15885135531425476
  orientation:
    x: 0.00013426201445263083
    y: -0.014620014280773523
    z: -0.12463145811334901
    w: 0.9920953722857112
---
header:
  stamp:
    sec: 1723550656
    nanosec: 150425344
  frame_id: map
pose:
  position:
    x: -0.10704618692398071
    y: -0.09186448156833649
    z: -0.17361405491828918
  orientation:
    x: -7.86747972927499e-07
    y: -0.0175185233320644
    z: -0.12389429128579738
    w: 0.9921407613483983
---
header:
  stamp:
    sec: 1723550656
    nanosec: 251302912
  frame_id: map
pose:
  position:
    x: -0.12975306808948517
    y: -0.08901768922805786
    z: -0.19047263264656067
  orientation:
    x: -0.0004491682770243659
    y: -0.01795676344024528
    z: -0.12349931081125166
    w: 0.9921820707998642
---
header:
  stamp:
    sec: 1723550656
    nanosec: 352202752
  frame_id: map
pose:
  position:
    x: -0.11424621194601059
    y: -0.10273241996765137
    z: -0.19911597669124603
  orientation:
    x: 0.0013474064197503623
    y: -0.019010315909612423
    z: -0.12242656559274268
    w: 0.9922945835869686
---
header:
  stamp:
    sec: 1723550656
    nanosec: 453029632
  frame_id: map
pose:
  position:
    x: -0.11896981298923492
    y: -0.10613660514354706
    z: -0.2183736264705658
  orientation:
    x: -0.0010283119770848014
    y: -0.019157693022020424
    z: -0.12011634764738775
    w: 0.992574421088684
---
header:
  stamp:
    sec: 1723550656
    nanosec: 553931776
  frame_id: map
pose:
  position:
    x: -0.09710090607404709
    y: -0.11763685941696167
    z: -0.24143047630786896
  orientation:
    x: 0.0016003826714920477
    y: -0.01895757802247239
    z: -0.11756558500039263
    w: 0.9928828528683323
---
header:
  stamp:
    sec: 1723550656
    nanosec: 654885120
  frame_id: map
pose:
  position:
    x: -0.07598476111888885
    y: -0.12021993100643158
    z: -0.2631661593914032
  orientation:
    x: -0.0010569538598854044
    y: -0.0189112896116902
    z: -0.11464564439232829
    w: 0.9932258609235962
---
header:
  stamp:
    sec: 1723550656
    nanosec: 755934720
  frame_id: map
pose:
  position:
    x: -0.10386921465396881
    y: -0.1229935735464096
    z: -0.29785603284835815
  orientation:
    x: -0.0016432486338408712
    y: -0.018392602459225214
    z: -0.11105972323867665
    w: 0.9936421536759629
---
header:
  stamp:
    sec: 1723550656
    nanosec: 856591616
  frame_id: map
pose:
  position:
    x: -0.1202671229839325
    y: -0.1297624558210373
    z: -0.3427455425262451
  orientation:
    x: 0.002986614057530412
    y: -0.020523326036606514
    z: -0.10755505826876834
    w: 0.9939828009196798
---
header:
  stamp:
    sec: 1723550656
    nanosec: 957482752
  frame_id: map
pose:
  position:
    x: -0.12687839567661285
    y: -0.12491023540496826
    z: -0.3699553906917572
  orientation:
    x: 0.0018931383209092928
    y: -0.024435200928670412
    z: -0.10423015238837138
    w: 0.994251185116962
---
header:
  stamp:
    sec: 1723550657
    nanosec: 58348544
  frame_id: map
pose:
  position:
    x: -0.11485125869512558
    y: -0.1241120919585228
    z: -0.4185156524181366
  orientation:
    x: 0.0010633087765449865
    y: -0.023303732095059582
    z: -0.10205979719953841
    w: 0.9945046858075405
---
header:
  stamp:
    sec: 1723550657
    nanosec: 159307264
  frame_id: map
pose:
  position:
    x: -0.09304379671812057
    y: -0.1329258233308792
    z: -0.4740392863750458
  orientation:
    x: 0.0024328517243898885
    y: -0.0226376985078777
    z: -0.1002848823074932
    w: 0.9946982163413173
---
header:
  stamp:
    sec: 1723550657
    nanosec: 260193024
  frame_id: map
pose:
  position:
    x: -0.1146245151758194
    y: -0.12768273055553436
    z: -0.5081188678741455
  orientation:
    x: 0.0025925768091007574
    y: -0.02265641440624702
    z: -0.09885841515876811
    w: 0.9948401772153486
---
header:
  stamp:
    sec: 1723550657
    nanosec: 360994816
  frame_id: map
pose:
  position:
    x: -0.13284607231616974
    y: -0.1240125373005867
    z: -0.5451068878173828
  orientation:
    x: 0.00500109515551549
    y: -0.021457542889956504
    z: -0.09830694402508022
    w: 0.9949121984723412
---
header:
  stamp:
    sec: 1723550657
    nanosec: 562767104
  frame_id: map
pose:
  position:
    x: -0.1317163109779358
    y: -0.12799780070781708
    z: -0.6193134784698486
  orientation:
    x: 0.0026118703510208193
    y: -0.023698856909100122
    z: -0.09966316736209226
    w: 0.9947355397686497
---
header:
  stamp:
    sec: 1723550657
    nanosec: 663629568
  frame_id: map
pose:
  position:
    x: -0.13070064783096313
    y: -0.1236996054649353
    z: -0.651228129863739
  orientation:
    x: 0.00039429867174047847
    y: -0.02595113545424072
    z: -0.10206217971711973
    w: 0.9944393855696733
---
header:
  stamp:
    sec: 1723550657
    nanosec: 764560896
  frame_id: map
pose:
  position:
    x: -0.1214173436164856
    y: -0.12465585023164749
    z: -0.6855303645133972
  orientation:
    x: 0.0002738440893779936
    y: -0.028750505531132356
    z: -0.10365461225226064
    w: 0.9941976789429552
---
header:
  stamp:
    sec: 1723550657
    nanosec: 865469440
  frame_id: map
pose:
  position:
    x: -0.13936185836791992
    y: -0.1252816915512085
    z: -0.7016026973724365
  orientation:
    x: 0.0001289636231551814
    y: -0.028430671543230705
    z: -0.10391896601679135
    w: 0.9941793183176939
---
header:
  stamp:
    sec: 1723550657
    nanosec: 966358016
  frame_id: map
pose:
  position:
    x: -0.12298789620399475
    y: -0.1249125525355339
    z: -0.7095146179199219
  orientation:
    x: 0.001606954537700103
    y: -0.029238521063528637
    z: -0.1047281788384884
    w: 0.9940696870867207
---
header:
  stamp:
    sec: 1723550658
    nanosec: 67257600
  frame_id: map
pose:
  position:
    x: -0.12354990094900131
    y: -0.1203470379114151
    z: -0.7167955636978149
  orientation:
    x: 0.0027113413500598
    y: -0.02649671339430103
    z: -0.10690980297270111
    w: 0.993911896719422
---
header:
  stamp:
    sec: 1723550658
    nanosec: 168099840
  frame_id: map
pose:
  position:
    x: -0.138997420668602
    y: -0.11426416039466858
    z: -0.7091965675354004
  orientation:
    x: 0.0011704829788938018
    y: -0.025666576638822457
    z: -0.10960492121161564
    w: 0.9936430909571882
---
header:
  stamp:
    sec: 1723550658
    nanosec: 268932864
  frame_id: map
pose:
  position:
    x: -0.12906508147716522
    y: -0.11133984476327896
    z: -0.7161871194839478
  orientation:
    x: 0.0018817697606272996
    y: -0.02475676282682147
    z: -0.11347299944909835
    w: 0.9932307893286048
---
header:
  stamp:
    sec: 1723550658
    nanosec: 369819136
  frame_id: map
pose:
  position:
    x: -0.12436246871948242
    y: -0.10976976156234741
    z: -0.7076113224029541
  orientation:
    x: 0.002181817708003753
    y: -0.02334509612091048
    z: -0.11667011961574185
    w: 0.9928939286922247
---
header:
  stamp:
    sec: 1723550658
    nanosec: 470673152
  frame_id: map
pose:
  position:
    x: -0.11867973208427429
    y: -0.1018420159816742
    z: -0.7346007823944092
  orientation:
    x: -0.003035208937197938
    y: -0.020680625106611356
    z: -0.11969389106460389
    w: 0.9925907997424019
---
header:
  stamp:
    sec: 1723550658
    nanosec: 571581952
  frame_id: map
pose:
  position:
    x: -0.10019687563180923
    y: -0.09885874390602112
    z: -0.7576718330383301
  orientation:
    x: -0.026934468420560406
    y: -0.012649508641964364
    z: -0.1223664151511671
    w: 0.9920387982651941
---
header:
  stamp:
    sec: 1723550658
    nanosec: 672506624
  frame_id: map
pose:
  position:
    x: -0.12339308112859726
    y: -0.09822331368923187
    z: -0.7214629054069519
  orientation:
    x: -0.03498163213546028
    y: -0.00971006475711869
    z: -0.12600146984945693
    w: 0.9913655277964147
---
header:
  stamp:
    sec: 1723550658
    nanosec: 773342720
  frame_id: map
pose:
  position:
    x: -0.11638110131025314
    y: -0.11011046171188354
    z: -0.7410642504692078
  orientation:
    x: -0.033729733980740535
    y: -0.014741029924208768
    z: -0.1295229598664458
    w: 0.9908929549676961
---
header:
  stamp:
    sec: 1723550658
    nanosec: 874178560
  frame_id: map
pose:
  position:
    x: -0.1326950043439865
    y: -0.1281009316444397
    z: -0.7415500283241272
  orientation:
    x: -0.03724221938548244
    y: -0.013355235801870728
    z: -0.1330396842678197
    w: 0.9903207097987702
---
header:
  stamp:
    sec: 1723550659
    nanosec: 176848384
  frame_id: map
pose:
  position:
    x: -0.1697991043329239
    y: -0.22994612157344818
    z: -0.771270751953125
  orientation:
    x: -0.017232052182286833
    y: -0.019755578092197832
    z: -0.14355899768629504
    w: 0.9892944901531087
---
header:
  stamp:
    sec: 1723550659
    nanosec: 277731328
  frame_id: map
pose:
  position:
    x: -0.17408135533332825
    y: -0.2752310037612915
    z: -0.7810933589935303
  orientation:
    x: -0.016200322697243794
    y: -0.019752895858952707
    z: -0.14678282334042628
    w: 0.9888388074930924
---
header:
  stamp:
    sec: 1723550659
    nanosec: 378585088
  frame_id: map
pose:
  position:
    x: -0.16806110739707947
    y: -0.3215002417564392
    z: -0.7978267073631287
  orientation:
    x: -0.01758136427965172
    y: -0.018634390592050108
    z: -0.1499418036752584
    w: 0.9883628329050027
---
header:
  stamp:
    sec: 1723550659
    nanosec: 479449856
  frame_id: map
pose:
  position:
    x: -0.18659143149852753
    y: -0.3689504861831665
    z: -0.8139885663986206
  orientation:
    x: -0.01932336483461279
    y: -0.018127744238612412
    z: -0.15282488569006364
    w: 0.9878980474166811
---
header:
  stamp:
    sec: 1723550659
    nanosec: 580437760
  frame_id: map
pose:
  position:
    x: -0.20335492491722107
    y: -0.42661774158477783
    z: -0.8176963329315186
  orientation:
    x: -0.018202533485947265
    y: -0.018798480012423513
    z: -0.15524362454025567
    w: 0.9875296120489249
---
header:
  stamp:
    sec: 1723550659
    nanosec: 681259008
  frame_id: map
pose:
  position:
    x: -0.22982381284236908
    y: -0.4852600395679474
    z: -0.8256807327270508
  orientation:
    x: -0.016235874294217786
    y: -0.01864497728668421
    z: -0.1561507228459082
    w: 0.9874237622637565
---
header:
  stamp:
    sec: 1723550659
    nanosec: 782165760
  frame_id: map
pose:
  position:
    x: -0.2586827874183655
    y: -0.5480911135673523
    z: -0.8333801031112671
  orientation:
    x: -0.015884630991664574
    y: -0.0182896078966867
    z: -0.15559339417861007
    w: 0.9875241119724569
---
header:
  stamp:
    sec: 1723550659
    nanosec: 883029248
  frame_id: map
pose:
  position:
    x: -0.2729235887527466
    y: -0.6039326190948486
    z: -0.8214662671089172
  orientation:
    x: -0.015961228399521746
    y: -0.018884700095007135
    z: -0.15373052785176597
    w: 0.9878033851002674
---
header:
  stamp:
    sec: 1723550659
    nanosec: 984066816
  frame_id: map
pose:
  position:
    x: -0.3074204623699188
    y: -0.6675114035606384
    z: -0.8125359416007996
  orientation:
    x: -0.0156779259066977
    y: -0.020407612960422445
    z: -0.15057018339079303
    w: 0.9882643023458849
---
header:
  stamp:
    sec: 1723550660
    nanosec: 84753152
  frame_id: map
pose:
  position:
    x: -0.3233744502067566
    y: -0.7305893301963806
    z: -0.8444026708602905
  orientation:
    x: -0.008128749506153402
    y: -0.023405000251739243
    z: -0.14576046156876094
    w: 0.9890096113940383
---
header:
  stamp:
    sec: 1723550660
    nanosec: 185686784
  frame_id: map
pose:
  position:
    x: -0.3568750321865082
    y: -0.7906314134597778
    z: -0.8537726402282715
  orientation:
    x: -0.005328803210204544
    y: -0.026096892134475597
    z: -0.1390975078490558
    w: 0.9899204064894869
---
header:
  stamp:
    sec: 1723550660
    nanosec: 286532352
  frame_id: map
pose:
  position:
    x: -0.38108861446380615
    y: -0.8566595911979675
    z: -0.8362298607826233
  orientation:
    x: 0.011042862386279337
    y: -0.027186652482664896
    z: -0.13085054448496766
    w: 0.9909677366866425
---
header:
  stamp:
    sec: 1723550660
    nanosec: 387471616
  frame_id: map
pose:
  position:
    x: -0.3855326771736145
    y: -0.9173376560211182
    z: -0.8629217147827148
  orientation:
    x: 0.03259874162552886
    y: -0.030799650763394557
    z: -0.12161134126944127
    w: 0.9915641117894357
---
header:
  stamp:
    sec: 1723550660
    nanosec: 488356608
  frame_id: map
pose:
  position:
    x: -0.39606115221977234
    y: -0.9694804549217224
    z: -0.8707712888717651
  orientation:
    x: 0.03883971418748213
    y: -0.0331858551657292
    z: -0.11101557904476442
    w: 0.9925047750141959
---
header:
  stamp:
    sec: 1723550660
    nanosec: 589176064
  frame_id: map
pose:
  position:
    x: -0.4139900803565979
    y: -1.0118751525878906
    z: -0.9057896137237549
  orientation:
    x: 0.03854612921373568
    y: -0.03259383849024761
    z: -0.10160380002192408
    w: 0.9935434117698155
---
header:
  stamp:
    sec: 1723550660
    nanosec: 992744704
  frame_id: map
pose:
  position:
    x: -0.47516748309135437
    y: -1.0877563953399658
    z: -0.9825062155723572
  orientation:
    x: 0.01760591729508175
    y: -0.03185613560541989
    z: -0.07536405517387873
    w: 0.9964915883555736
---
header:
  stamp:
    sec: 1723550661
    nanosec: 93698560
  frame_id: map
pose:
  position:
    x: -0.4515749216079712
    y: -1.0982376337051392
    z: -0.9974201321601868
  orientation:
    x: 0.009572898481113765
    y: -0.027370080760777665
    z: -0.07161198112702555
    w: 0.9970110166667039
---
header:
  stamp:
    sec: 1723550661
    nanosec: 194585088
  frame_id: map
pose:
  position:
    x: -0.45557284355163574
    y: -1.100351095199585
    z: -0.9944136142730713
  orientation:
    x: 0.0007643659266956562
    y: -0.026291200885419926
    z: -0.0696857960711468
    w: 0.9972221714688013
---
header:
  stamp:
    sec: 1723550661
    nanosec: 295389952
  frame_id: map
pose:
  position:
    x: -0.4564428925514221
    y: -1.1050574779510498
    z: -0.9713209867477417
  orientation:
    x: -0.005219397412500466
    y: -0.03570251503551391
    z: -0.06845200093184661
    w: 0.9970017277875753
---
header:
  stamp:
    sec: 1723550661
    nanosec: 396222464
  frame_id: map
pose:
  position:
    x: -0.46003440022468567
    y: -1.1075071096420288
    z: -0.9820495247840881
  orientation:
    x: -0.004434127168596383
    y: -0.04245386698770997
    z: -0.06913599815099075
    w: 0.9966936436774342
---
header:
  stamp:
    sec: 1723550661
    nanosec: 497291264
  frame_id: map
pose:
  position:
    x: -0.44559112191200256
    y: -1.1177674531936646
    z: -1.0054770708084106
  orientation:
    x: -0.00144787301632324
    y: -0.043163728257836265
    z: -0.06923894648138175
    w: 0.9966648259924686
---
header:
  stamp:
    sec: 1723550661
    nanosec: 598064640
  frame_id: map
pose:
  position:
    x: -0.435407817363739
    y: -1.1245876550674438
    z: -1.006899118423462
  orientation:
    x: -0.001057757382839711
    y: -0.04049656341403663
    z: -0.07027378383740172
    w: 0.9967048191831847
---
header:
  stamp:
    sec: 1723550661
    nanosec: 698949376
  frame_id: map
pose:
  position:
    x: -0.4283263683319092
    y: -1.1302213668823242
    z: -1.0121396780014038
  orientation:
    x: -0.000803735641024697
    y: -0.03916690389720255
    z: -0.072137037138857
    w: 0.99662507789867
---
header:
  stamp:
    sec: 1723550661
    nanosec: 799785216
  frame_id: map
pose:
  position:
    x: -0.4168086349964142
    y: -1.135687232017517
    z: -1.0084974765777588
  orientation:
    x: -0.0013262543284677441
    y: -0.03775614914520326
    z: -0.0733314828027247
    w: 0.9965917800807775
---
header:
  stamp:
    sec: 1723550661
    nanosec: 900726016
  frame_id: map
pose:
  position:
    x: -0.3977205455303192
    y: -1.1425695419311523
    z: -0.9989304542541504
  orientation:
    x: -0.0027333382240833748
    y: -0.03942296339754278
    z: -0.07534629855542137
    w: 0.9963740534109707
---
header:
  stamp:
    sec: 1723550662
    nanosec: 1502208
  frame_id: map
pose:
  position:
    x: -0.3848208785057068
    y: -1.1474378108978271
    z: -1.0107316970825195
  orientation:
    x: -0.003527597285748191
    y: -0.0412943576645387
    z: -0.0772439293512619
    w: 0.9961504527389791
---
header:
  stamp:
    sec: 1723550662
    nanosec: 102371584
  frame_id: map
pose:
  position:
    x: -0.35415515303611755
    y: -1.1571592092514038
    z: -1.0194734334945679
  orientation:
    x: -0.0016580031380041334
    y: -0.039858668622123256
    z: -0.07872538162355998
    w: 0.9960978115223378
---
header:
  stamp:
    sec: 1723550662
    nanosec: 203339008
  frame_id: map
pose:
  position:
    x: -0.3256652355194092
    y: -1.1672841310501099
    z: -1.0072062015533447
  orientation:
    x: -0.001205058553924243
    y: -0.03922123871728763
    z: -0.07995643976180274
    w: 0.9960256815073588
---
header:
  stamp:
    sec: 1723550662
    nanosec: 304221184
  frame_id: map
pose:
  position:
    x: -0.30404001474380493
    y: -1.1738427877426147
    z: -1.0077149868011475
  orientation:
    x: -0.00037958032378209377
    y: -0.03925919566668509
    z: -0.0815298472793827
    w: 0.9958972961574851
---
header:
  stamp:
    sec: 1723550662
    nanosec: 506032896
  frame_id: map
pose:
  position:
    x: -0.2352432906627655
    y: -1.1880011558532715
    z: -1.0064703226089478
  orientation:
    x: -0.00233455215110089
    y: -0.035657141909963476
    z: -0.08513231848613816
    w: 0.9957286689268331
---
header:
  stamp:
    sec: 1723550662
    nanosec: 606856704
  frame_id: map
pose:
  position:
    x: -0.20805229246616364
    y: -1.1922870874404907
    z: -0.999823808670044
  orientation:
    x: -0.012796974056624364
    y: -0.031963048286347585
    z: -0.08717179782029764
    w: 0.9955981498924451
---
header:
  stamp:
    sec: 1723550662
    nanosec: 707711232
  frame_id: map
pose:
  position:
    x: -0.17582808434963226
    y: -1.2077536582946777
    z: -0.9693995118141174
  orientation:
    x: -0.02355522831809954
    y: -0.03406346714402508
    z: -0.08945857739289871
    w: 0.9951291443889766
---
header:
  stamp:
    sec: 1723550662
    nanosec: 909526272
  frame_id: map
pose:
  position:
    x: -0.10271324962377548
    y: -1.2458281517028809
    z: -0.9818302392959595
  orientation:
    x: -0.021655004527939996
    y: -0.04111997756214608
    z: -0.09447663802275741
    w: 0.9944417381308993
---
header:
  stamp:
    sec: 1723550663
    nanosec: 10333440
  frame_id: map
pose:
  position:
    x: -0.046033505350351334
    y: -1.2793692350387573
    z: -0.9690980315208435
  orientation:
    x: -0.015560131786082626
    y: -0.03918216097898485
    z: -0.0978329800769496
    w: 0.9943094765913731
---
header:
  stamp:
    sec: 1723550663
    nanosec: 111245824
  frame_id: map
pose:
  position:
    x: 0.001629415201023221
    y: -1.313538670539856
    z: -0.9760171175003052
  orientation:
    x: -0.0047394292317753895
    y: -0.03853783325680832
    z: -0.10131738714749225
    w: 0.99409615167994
---
header:
  stamp:
    sec: 1723550663
    nanosec: 212176640
  frame_id: map
pose:
  position:
    x: 0.02587297186255455
    y: -1.3432221412658691
    z: -0.9735556244850159
  orientation:
    x: -0.00208561861102399
    y: -0.04002379540439482
    z: -0.10490766412236151
    w: 0.9936740507337023
---
header:
  stamp:
    sec: 1723550663
    nanosec: 313003776
  frame_id: map
pose:
  position:
    x: 0.06957066804170609
    y: -1.3763070106506348
    z: -0.9586138129234314
  orientation:
    x: 0.0025081310733160666
    y: -0.0411589166916572
    z: -0.10834902870978214
    w: 0.9932573212805762
---
header:
  stamp:
    sec: 1723550663
    nanosec: 413939456
  frame_id: map
pose:
  position:
    x: 0.12162730097770691
    y: -1.4089065790176392
    z: -0.9462289810180664
  orientation:
    x: 0.003495621975107456
    y: -0.04922494144264264
    z: -0.112104593602787
    w: 0.9924702804569484
---
header:
  stamp:
    sec: 1723550663
    nanosec: 514745856
  frame_id: map
pose:
  position:
    x: 0.18694739043712616
    y: -1.438180685043335
    z: -0.9418814778327942
  orientation:
    x: 5.465536768522167e-05
    y: -0.05224489770748919
    z: -0.11612914272383029
    w: 0.9918591113581657
---
header:
  stamp:
    sec: 1723550663
    nanosec: 615635200
  frame_id: map
pose:
  position:
    x: 0.2416151463985443
    y: -1.4650461673736572
    z: -0.9450017809867859
  orientation:
    x: -0.0016238631236223503
    y: -0.05280224580375589
    z: -0.11926602561519957
    w: 0.9914559423259246
---
header:
  stamp:
    sec: 1723550663
    nanosec: 817605888
  frame_id: map
pose:
  position:
    x: 0.37783747911453247
    y: -1.5236512422561646
    z: -0.9682552218437195
  orientation:
    x: -0.002125796250139913
    y: -0.04670730605073336
    z: -0.12554587432071967
    w: 0.9909854500897677
---
header:
  stamp:
    sec: 1723550663
    nanosec: 918354176
  frame_id: map
pose:
  position:
    x: 0.4340323507785797
    y: -1.5529142618179321
    z: -0.9635188579559326
  orientation:
    x: -0.0015036136982761901
    y: -0.04092844348576497
    z: -0.12780362791054692
    w: 0.9909534815278784
---
header:
  stamp:
    sec: 1723550664
    nanosec: 19222272
  frame_id: map
pose:
  position:
    x: 0.5184025168418884
    y: -1.582259178161621
    z: -0.9589462876319885
  orientation:
    x: -0.0020055388340145556
    y: -0.03812847258584844
    z: -0.12967258090986866
    w: 0.9908214837534889
---
header:
  stamp:
    sec: 1723550664
    nanosec: 120144384
  frame_id: map
pose:
  position:
    x: 0.616334080696106
    y: -1.6119694709777832
    z: -0.9518674612045288
  orientation:
    x: -0.0017852976381153198
    y: -0.03375114557665441
    z: -0.13124323335907345
    w: 0.990773883546144
---
header:
  stamp:
    sec: 1723550664
    nanosec: 221054208
  frame_id: map
pose:
  position:
    x: 0.6994419097900391
    y: -1.641416311264038
    z: -0.9486819505691528
  orientation:
    x: -0.0015162321009911481
    y: -0.03144497889426625
    z: -0.13162737369866087
    w: 0.9907992555684406
---
header:
  stamp:
    sec: 1723550664
    nanosec: 321784064
  frame_id: map
pose:
  position:
    x: 0.7744926810264587
    y: -1.6704555749893188
    z: -0.9392344355583191
  orientation:
    x: -0.0011898320994933862
    y: -0.03034707203871001
    z: -0.13001949982493924
    w: 0.9910462115736017
---
header:
  stamp:
    sec: 1723550664
    nanosec: 422778880
  frame_id: map
pose:
  position:
    x: 0.8646210432052612
    y: -1.7023512125015259
    z: -0.9304414987564087
  orientation:
    x: -0.0021597526116221306
    y: -0.02436889820200927
    z: -0.1266390331045142
    w: 0.9916471376553077
---
header:
  stamp:
    sec: 1723550664
    nanosec: 523644672
  frame_id: map
pose:
  position:
    x: 0.9258871674537659
    y: -1.7300465106964111
    z: -0.9542848467826843
  orientation:
    x: 0.001708854825780847
    y: -0.02151247364477792
    z: -0.12357761046242415
    w: 0.9921002236976136
---
header:
  stamp:
    sec: 1723550664
    nanosec: 624477696
  frame_id: map
pose:
  position:
    x: 1.0005563497543335
    y: -1.7570756673812866
    z: -0.9470861554145813
  orientation:
    x: 0.00031063961716689927
    y: -0.01883808031101153
    z: -0.12084307337577228
    w: 0.9924928090293836
---
header:
  stamp:
    sec: 1723550664
    nanosec: 725412096
  frame_id: map
pose:
  position:
    x: 1.0733327865600586
    y: -1.784514307975769
    z: -0.9458959102630615
  orientation:
    x: 0.001126827494002162
    y: -0.017185832665309597
    z: -0.11757131171798013
    w: 0.9929150669644226
---
header:
  stamp:
    sec: 1723550664
    nanosec: 826292992
  frame_id: map
pose:
  position:
    x: 1.1395918130874634
    y: -1.809126853942871
    z: -0.9345040917396545
  orientation:
    x: 0.0005190078509933965
    y: -0.016269121688611356
    z: -0.11417010382694638
    w: 0.9933278671710031
---
header:
  stamp:
    sec: 1723550664
    nanosec: 927994112
  frame_id: map
pose:
  position:
    x: 1.2184934616088867
    y: -1.8374834060668945
    z: -0.9294186234474182
  orientation:
    x: -0.0002715997318703705
    y: -0.008088038712194096
    z: -0.1106171501866682
    w: 0.9938301395995289
---
header:
  stamp:
    sec: 1723550665
    nanosec: 28131328
  frame_id: map
pose:
  position:
    x: 1.2755001783370972
    y: -1.8601019382476807
    z: -0.9100104570388794
  orientation:
    x: 0.0006674185664854774
    y: 0.0016993104578230584
    z: -0.10806203411293455
    w: 0.9941424686437274
---
header:
  stamp:
    sec: 1723550665
    nanosec: 128906240
  frame_id: map
pose:
  position:
    x: 1.3245304822921753
    y: -1.8830782175064087
    z: -0.9150142669677734
  orientation:
    x: 0.004446418871586902
    y: 0.01175043361522443
    z: -0.10502212410819806
    w: 0.9943905124737071
---
header:
  stamp:
    sec: 1723550665
    nanosec: 229855488
  frame_id: map
pose:
  position:
    x: 1.3605355024337769
    y: -1.9006221294403076
    z: -0.8996762633323669
  orientation:
    x: 0.0048532307312656375
    y: 0.013887177421396599
    z: -0.10293727759526648
    w: 0.9945790761039616
---
header:
  stamp:
    sec: 1723550665
    nanosec: 330723840
  frame_id: map
pose:
  position:
    x: 1.4008638858795166
    y: -1.9190294742584229
    z: -0.9239935278892517
  orientation:
    x: 0.009276178099804574
    y: 0.011890066092112612
    z: -0.10114606617560887
    w: 0.9947573055038381
---
header:
  stamp:
    sec: 1723550665
    nanosec: 633363712
  frame_id: map
pose:
  position:
    x: 1.4710055589675903
    y: -1.9466552734375
    z: -0.9499304890632629
  orientation:
    x: 0.005926036068423173
    y: -0.026812834213268712
    z: -0.09487261869916798
    w: 0.9951106212575279
---
header:
  stamp:
    sec: 1723550665
    nanosec: 734143232
  frame_id: map
pose:
  position:
    x: 1.4896581172943115
    y: -1.955588459968567
    z: -0.9621729254722595
  orientation:
    x: 0.0030258588236159708
    y: -0.034598607172542234
    z: -0.09258195652242068
    w: 0.9950991732807729
---
header:
  stamp:
    sec: 1723550665
    nanosec: 835131648
  frame_id: map
pose:
  position:
    x: 1.501393437385559
    y: -1.9620791673660278
    z: -0.9359564185142517
  orientation:
    x: -0.0007586647106545569
    y: -0.046229140448739325
    z: -0.09038992133638149
    w: 0.9948326130706916
---
header:
  stamp:
    sec: 1723550665
    nanosec: 935996928
  frame_id: map
pose:
  position:
    x: 1.531981110572815
    y: -1.9707967042922974
    z: -0.9403767585754395
  orientation:
    x: -0.0029892382792013413
    y: -0.049421063691757264
    z: -0.08806163430421367
    w: 0.9948838084756337
---
header:
  stamp:
    sec: 1723550666
    nanosec: 137874944
  frame_id: map
pose:
  position:
    x: 1.594800591468811
    y: -1.990486741065979
    z: -0.9395216703414917
  orientation:
    x: -0.002903178693099387
    y: -0.056124897123738055
    z: -0.08421683013147285
    w: 0.9948613565144253
---
header:
  stamp:
    sec: 1723550666
    nanosec: 238632704
  frame_id: map
pose:
  position:
    x: 1.6240037679672241
    y: -2.000443458557129
    z: -0.9174644947052002
  orientation:
    x: -0.0014480551163625812
    y: -0.06561818942217294
    z: -0.0820930115374103
    w: 0.9944610978501518
---
header:
  stamp:
    sec: 1723550666
    nanosec: 339451392
  frame_id: map
pose:
  position:
    x: 1.6772276163101196
    y: -2.013317823410034
    z: -0.9221221804618835
  orientation:
    x: 0.0019183508710843115
    y: -0.06343817285822062
    z: -0.08065786183428464
    w: 0.994719151488567
---
header:
  stamp:
    sec: 1723550666
    nanosec: 440383232
  frame_id: map
pose:
  position:
    x: 1.720469355583191
    y: -2.022366523742676
    z: -0.9252033233642578
  orientation:
    x: 0.0013823347537255263
    y: -0.0566036540620386
    z: -0.07860547444857008
    w: 0.995296585638471
---
header:
  stamp:
    sec: 1723550666
    nanosec: 541224704
  frame_id: map
pose:
  position:
    x: 1.7743088006973267
    y: -2.0289008617401123
    z: -0.919118344783783
  orientation:
    x: -0.0005843809320342215
    y: -0.05295686289723813
    z: -0.07714687399069044
    w: 0.995612173913787
---
header:
  stamp:
    sec: 1723550666
    nanosec: 642173952
  frame_id: map
pose:
  position:
    x: 1.840969204902649
    y: -2.0391671657562256
    z: -0.910643994808197
  orientation:
    x: -5.697628222258923e-05
    y: -0.04890150050532725
    z: -0.07642160545898348
    w: 0.9958756750407851
---
header:
  stamp:
    sec: 1723550666
    nanosec: 743080192
  frame_id: map
pose:
  position:
    x: 1.9217009544372559
    y: -2.0475659370422363
    z: -0.9443484544754028
  orientation:
    x: 0.0021893008295340447
    y: -0.042914313592308566
    z: -0.07548932517408483
    w: 0.9962203225893086
---
header:
  stamp:
    sec: 1723550666
    nanosec: 843963136
  frame_id: map
pose:
  position:
    x: 1.988319754600525
    y: -2.055499315261841
    z: -0.9349477887153625
  orientation:
    x: 0.0012442696308436123
    y: -0.04324454835789173
    z: -0.07529855366487789
    w: 0.9962221175112669
---
header:
  stamp:
    sec: 1723550666
    nanosec: 945130496
  frame_id: map
pose:
  position:
    x: 2.0639867782592773
    y: -2.0623984336853027
    z: -0.9193276762962341
  orientation:
    x: 0.00010263251051495787
    y: -0.042349326796617626
    z: -0.0751261610461818
    w: 0.9962743558024424
---
header:
  stamp:
    sec: 1723550667
    nanosec: 45712384
  frame_id: map
pose:
  position:
    x: 2.1549177169799805
    y: -2.074880361557007
    z: -0.942275881767273
  orientation:
    x: 0.0014751087861622867
    y: -0.034966288557786475
    z: -0.07551421152025739
    w: 0.9965303698264928
---
header:
  stamp:
    sec: 1723550667
    nanosec: 146677248
  frame_id: map
pose:
  position:
    x: 2.2249252796173096
    y: -2.0798816680908203
    z: -0.9363569021224976
  orientation:
    x: 0.0011735001569515202
    y: -0.03647264013749367
    z: -0.07585434998807629
    w: 0.9964509360977103
---
header:
  stamp:
    sec: 1723550667
    nanosec: 247448064
  frame_id: map
pose:
  position:
    x: 2.2944254875183105
    y: -2.0822207927703857
    z: -0.9169723391532898
  orientation:
    x: 0.0007659371233356124
    y: -0.04137863550852347
    z: -0.07606553708524512
    w: 0.9962435815357903
---
header:
  stamp:
    sec: 1723550667
    nanosec: 348349696
  frame_id: map
pose:
  position:
    x: 2.3778250217437744
    y: -2.085766077041626
    z: -0.9029672145843506
  orientation:
    x: -0.0010339334918780328
    y: -0.04328881060601786
    z: -0.07618422997042959
    w: 0.9961530854747243
---
header:
  stamp:
    sec: 1723550667
    nanosec: 449289472
  frame_id: map
pose:
  position:
    x: 2.455568790435791
    y: -2.0900769233703613
    z: -0.8943912386894226
  orientation:
    x: -0.00541800956832522
    y: -0.043571920155735674
    z: -0.07589431231932814
    w: 0.9961486576878907
---
header:
  stamp:
    sec: 1723550667
    nanosec: 550062080
  frame_id: map
pose:
  position:
    x: 2.5341804027557373
    y: -2.09723162651062
    z: -0.8756271600723267
  orientation:
    x: -0.008510061022185983
    y: -0.044685420177534255
    z: -0.07565804033341254
    w: 0.9960957022255111
---
header:
  stamp:
    sec: 1723550667
    nanosec: 650987776
  frame_id: map
pose:
  position:
    x: 2.632857322692871
    y: -2.105302095413208
    z: -0.8838486671447754
  orientation:
    x: -0.007906015375437583
    y: -0.04453854270551385
    z: -0.07515448711569626
    w: 0.9961453592730832
---
header:
  stamp:
    sec: 1723550667
    nanosec: 751903488
  frame_id: map
pose:
  position:
    x: 2.721295118331909
    y: -2.11271595954895
    z: -0.8887049555778503
  orientation:
    x: -0.007675059169371274
    y: -0.04190440933593641
    z: -0.07400812451912625
    w: 0.9963472679498908
---
header:
  stamp:
    sec: 1723550667
    nanosec: 852765696
  frame_id: map
pose:
  position:
    x: 2.8110506534576416
    y: -2.1237244606018066
    z: -0.8692708015441895
  orientation:
    x: -0.005956130774146276
    y: -0.0440003967967905
    z: -0.07278237113772307
    w: 0.9963589782651838
---
header:
  stamp:
    sec: 1723550667
    nanosec: 953646080
  frame_id: map
pose:
  position:
    x: 2.904463291168213
    y: -2.1340835094451904
    z: -0.8809314370155334
  orientation:
    x: -0.005695981054674404
    y: -0.040687481096765024
    z: -0.07137146954775966
    w: 0.9966033080996338
---
header:
  stamp:
    sec: 1723550668
    nanosec: 54548224
  frame_id: map
pose:
  position:
    x: 3.028555154800415
    y: -2.1482295989990234
    z: -0.8868661522865295
  orientation:
    x: -0.004924673440759088
    y: -0.0380691381743025
    z: -0.07044486668274917
    w: 0.9967768253068313
---
header:
  stamp:
    sec: 1723550668
    nanosec: 357113088
  frame_id: map
pose:
  position:
    x: 3.351428508758545
    y: -2.1944432258605957
    z: -0.87340247631073
  orientation:
    x: -0.00029392099597099695
    y: -0.02958448438484451
    z: -0.0677195386737895
    w: 0.9972656312756476
---
header:
  stamp:
    sec: 1723550668
    nanosec: 458036992
  frame_id: map
pose:
  position:
    x: 3.4487173557281494
    y: -2.207489252090454
    z: -0.87954181432724
  orientation:
    x: 0.0003245689925981837
    y: -0.02908574820070643
    z: -0.06678218190635829
    w: 0.9973434910930027
---
header:
  stamp:
    sec: 1723550668
    nanosec: 558896384
  frame_id: map
pose:
  position:
    x: 3.56044602394104
    y: -2.2231616973876953
    z: -0.8505725860595703
  orientation:
    x: -0.0006827903688411015
    y: -0.029436247061360613
    z: -0.06599432662309745
    w: 0.9973854590624256
---
header:
  stamp:
    sec: 1723550668
    nanosec: 659767808
  frame_id: map
pose:
  position:
    x: 3.6582133769989014
    y: -2.235783576965332
    z: -0.8415396213531494
  orientation:
    x: -0.000804224248928587
    y: -0.02965176185604845
    z: -0.06518700164452196
    w: 0.9974320938783244
---
header:
  stamp:
    sec: 1723550668
    nanosec: 760717824
  frame_id: map
pose:
  position:
    x: 3.758958339691162
    y: -2.2525794506073
    z: -0.8695324659347534
  orientation:
    x: 4.7241959360097864e-05
    y: -0.02924711467317112
    z: -0.0638244626761277
    w: 0.9975324600239635
---
header:
  stamp:
    sec: 1723550668
    nanosec: 861590528
  frame_id: map
pose:
  position:
    x: 3.8665292263031006
    y: -2.2681639194488525
    z: -0.85660719871521
  orientation:
    x: 0.0009183760860998141
    y: -0.028742570593936687
    z: -0.062308525482744605
    w: 0.9976425396986118
---
header:
  stamp:
    sec: 1723550668
    nanosec: 962399232
  frame_id: map
pose:
  position:
    x: 3.9861226081848145
    y: -2.280803680419922
    z: -0.8515990972518921
  orientation:
    x: -0.0009758560543086727
    y: -0.02292429999109817
    z: -0.061081551280184554
    w: 0.9978690166219937
---
header:
  stamp:
    sec: 1723550669
    nanosec: 63335168
  frame_id: map
pose:
  position:
    x: 4.080709934234619
    y: -2.294546127319336
    z: -0.8329263925552368
  orientation:
    x: -0.003249558454387359
    y: -0.01716753440467174
    z: -0.06006255876169557
    w: 0.9980416792344269
---
header:
  stamp:
    sec: 1723550669
    nanosec: 265135872
  frame_id: map
pose:
  position:
    x: 4.2704243659973145
    y: -2.328111410140991
    z: -0.8291058540344238
  orientation:
    x: 0.0019976260162397432
    y: 0.007027266221327124
    z: -0.057787599403613756
    w: 0.9983021732489511
---
header:
  stamp:
    sec: 1723550669
    nanosec: 366058752
  frame_id: map
pose:
  position:
    x: 4.355310440063477
    y: -2.346567153930664
    z: -0.7169046998023987
  orientation:
    x: -0.003582248860945052
    y: 0.015494347282093921
    z: -0.05651709165541859
    w: 0.998274969325099
---
header:
  stamp:
    sec: 1723550669
    nanosec: 466867968
  frame_id: map
pose:
  position:
    x: 4.4352312088012695
    y: -2.3480465412139893
    z: -0.7749887108802795
  orientation:
    x: 8.194916561946436e-05
    y: 0.02562292915411136
    z: -0.054024302487400214
    w: 0.9982108188657174
---
header:
  stamp:
    sec: 1723550669
    nanosec: 567730944
  frame_id: map
pose:
  position:
    x: 4.49988317489624
    y: -2.355715274810791
    z: -0.7847855687141418
  orientation:
    x: 0.0018466795171153242
    y: 0.024259068084526353
    z: -0.052805971584162094
    w: 0.998308390118431
---
header:
  stamp:
    sec: 1723550669
    nanosec: 668612864
  frame_id: map
pose:
  position:
    x: 4.546615123748779
    y: -2.3606116771698
    z: -0.7696203589439392
  orientation:
    x: 0.0004185121929637257
    y: 0.025586428288421833
    z: -0.051187304578827725
    w: 0.9983611610492743
---
header:
  stamp:
    sec: 1723550669
    nanosec: 769597440
  frame_id: map
pose:
  position:
    x: 4.588263988494873
    y: -2.3660953044891357
    z: -0.7930866479873657
  orientation:
    x: 0.0032469777445307264
    y: 0.027157077657449853
    z: -0.05197757758825978
    w: 0.998273640829174
---
header:
  stamp:
    sec: 1723550669
    nanosec: 870465792
  frame_id: map
pose:
  position:
    x: 4.6225666999816895
    y: -2.3673837184906006
    z: -0.8096060752868652
  orientation:
    x: -0.004826452157887621
    y: 0.024099998895141996
    z: -0.053958117104419
    w: 0.9982406592315398
---
header:
  stamp:
    sec: 1723550669
    nanosec: 971253760
  frame_id: map
pose:
  position:
    x: 4.6389994621276855
    y: -2.3655824661254883
    z: -0.7660870552062988
  orientation:
    x: -0.006505202291844309
    y: 0.00214007121860325
    z: -0.054227345169450006
    w: 0.9985051306801422
---
header:
  stamp:
    sec: 1723550670
    nanosec: 72318464
  frame_id: map
pose:
  position:
    x: 4.630024433135986
    y: -2.3656883239746094
